$GPGGA,011411.250,3101.50195114,N,12126.36624997,E,4,20,1.19,26.87,M,11.10,M,0.0,*7E
$GPFPD,1237,436469.250,00,00,00,3101.5019511,12126.3662500,37.966,-0.001,0.002,-0.010,00
$GPGGA,011412.250,3101.50204022,N,12126.36620679,E,4,20,1.19,27.78,M,11.10,M,0.0,*78
$GPFPD,1237,436470.250,00,00,00,3101.5020402,12126.3662068,38.874,-0.005,-0.015,0.009,00
$GPGGA,011413.250,3101.50196951,N,12126.36657154,E,1,20,1.19,27.92,M,11.10,M,0.0,*75
$GPFPD,1237,436471.250,00,00,00,3101.5019695,12126.3665715,39.015,-0.013,-0.006,0.014,00
$GPGGA,011414.250,3101.50167434,N,12126.36622164,E,1,20,1.14,28.72,M,11.10,M,0.0,*7F
$GPFPD,1237,436472.250,00,00,00,3101.5016743,12126.3662216,39.814,-0.014,0.005,0.003,00
$GPGGA,011415.250,3101.50165732,N,12126.36626482,E,1,20,1.14,28.94,M,11.10,M,0.0,*78
$GPFPD,1237,436473.250,00,00,00,3101.5016573,12126.3662648,40.040,-0.013,-0.009,0.004,00
$GPGGA,011416.250,3101.50169711,N,12126.36632797,E,1,20,1.14,28.74,M,11.10,M,0.0,*7A
$GPFPD,1237,436474.250,00,00,00,3101.5016971,12126.3663280,39.837,-0.009,-0.008,-0.003,00
$GPGGA,011417.250,3101.50168499,N,12126.36626224,E,1,20,1.14,28.41,M,11.10,M,0.0,*77
$GPFPD,1237,436475.250,00,00,00,3101.5016850,12126.3662622,39.507,-0.013,-0.012,0.006,00
$GPGGA,011418.250,3101.50162849,N,12126.36639087,E,1,20,1.14,28.19,M,11.10,M,0.0,*7B
$GPFPD,1237,436476.250,00,00,00,3101.5016285,12126.3663909,39.289,-0.013,-0.008,0.003,00
$GPGGA,011419.250,3101.50157879,N,12126.36649399,E,1,20,1.14,28.35,M,11.10,M,0.0,*7A
$GPFPD,1237,436477.250,00,00,00,3101.5015788,12126.3664940,39.444,0.005,-0.001,0.001,00
$GPGGA,011420.250,3101.50151905,N,12126.36653762,E,1,20,1.14,28.78,M,11.10,M,0.0,*7E
$GPFPD,1237,436478.250,00,00,00,3101.5015191,12126.3665376,39.874,0.007,-0.004,0.003,00
$GPGGA,011421.250,3101.50147601,N,12126.36664710,E,1,20,1.14,29.05,M,11.10,M,0.0,*79
$GPFPD,1237,436479.250,00,00,00,3101.5014760,12126.3666471,40.141,0.007,-0.022,0.013,00
$GPGGA,011422.250,3101.50135681,N,12126.36700354,E,1,20,1.14,29.65,M,11.10,M,0.0,*76
$GPFPD,1237,436480.250,00,00,00,3101.5013568,12126.3670035,40.750,0.011,-0.019,0.011,00
$GPGGA,011423.250,3101.50125267,N,12126.36719215,E,1,20,1.14,30.23,M,11.10,M,0.0,*7C
$GPFPD,1237,436481.250,00,00,00,3101.5012527,12126.3671922,41.323,-0.021,0.010,-0.001,00
$GPGGA,011424.250,3101.50125105,N,12126.36719167,E,1,20,1.14,30.29,M,11.10,M,0.0,*70
$GPFPD,1237,436482.250,00,00,00,3101.5012511,12126.3671917,41.386,-0.013,-0.001,-0.011,00
$GPGGA,011425.250,3101.50125373,N,12126.36717646,E,1,20,1.14,30.27,M,11.10,M,0.0,*76
$GPFPD,1237,436483.250,00,00,00,3101.5012537,12126.3671765,41.370,-0.010,-0.005,-0.002,00
$GPGGA,011426.250,3101.50125537,N,12126.36714190,E,1,20,1.14,30.22,M,11.10,M,0.0,*79
$GPFPD,1237,436484.250,00,00,00,3101.5012554,12126.3671419,41.317,-0.007,-0.006,-0.002,00
$GPGGA,011427.250,3101.50126579,N,12126.36709591,E,1,20,1.14,30.12,M,11.10,M,0.0,*7B
$GPFPD,1237,436485.250,00,00,00,3101.5012658,12126.3670959,41.218,0.001,-0.011,-0.011,00
$GPGGA,011428.250,3101.50128371,N,12126.36706479,E,1,20,1.14,30.00,M,11.10,M,0.0,*7F
$GPFPD,1237,436486.250,00,00,00,3101.5012837,12126.3670648,41.100,-0.004,-0.006,-0.015,00
$GPGGA,011429.250,3101.50133703,N,12126.36697752,E,1,20,1.14,29.89,M,11.10,M,0.0,*7F
$GPFPD,1237,436487.250,00,00,00,3101.5013370,12126.3669775,40.990,0.004,-0.011,-0.006,00
$GPGGA,011430.250,3101.50137946,N,12126.36685181,E,1,20,1.14,29.92,M,11.10,M,0.0,*7D
$GPFPD,1237,436488.250,00,00,00,3101.5013795,12126.3668518,41.020,0.007,-0.012,0.004,00
$GPGGA,011431.250,3101.50137905,N,12126.36681849,E,1,20,1.14,29.93,M,11.10,M,0.0,*73
$GPFPD,1237,436489.250,00,00,00,3101.5013790,12126.3668185,41.024,0.002,-0.012,0.001,00
$GPGGA,011432.250,3101.50141700,N,12126.36682034,E,1,20,1.14,29.90,M,11.10,M,0.0,*78
$GPFPD,1237,436490.250,00,00,00,3101.5014170,12126.3668203,40.999,-0.010,0.001,-0.011,00
$GPGGA,011433.250,3101.50142109,N,12126.36680709,E,1,20,1.14,29.91,M,11.10,M,0.0,*7F
$GPFPD,1237,436491.250,00,00,00,3101.5014211,12126.3668071,41.007,-0.009,-0.003,0.002,00
$GPGGA,011434.250,3101.50143042,N,12126.36678623,E,1,20,1.14,29.94,M,11.10,M,0.0,*7C
$GPFPD,1237,436492.250,00,00,00,3101.5014304,12126.3667862,41.036,-0.008,-0.005,0.002,00
$GPGGA,011435.250,3101.50143703,N,12126.36677899,E,1,20,1.14,29.97,M,11.10,M,0.0,*7C
$GPFPD,1237,436493.250,00,00,00,3101.5014370,12126.3667790,41.065,0.002,-0.012,0.006,00
$GPGGA,011436.250,3101.50144320,N,12126.36676795,E,1,20,1.14,29.98,M,11.10,M,0.0,*70
$GPFPD,1237,436494.250,00,00,00,3101.5014432,12126.3667680,41.080,0.004,-0.005,-0.000,00
$GPGGA,011437.250,3101.50145209,N,12126.36676898,E,1,20,1.14,29.99,M,11.10,M,0.0,*79
$GPFPD,1237,436495.250,00,00,00,3101.5014521,12126.3667690,41.088,-0.002,-0.010,0.001,00
$GPGGA,011438.250,3101.50145816,N,12126.36678402,E,1,20,1.14,29.99,M,11.10,M,0.0,*73
$GPFPD,1237,436496.250,00,00,00,3101.5014582,12126.3667840,41.084,0.001,-0.012,0.021,00
$GPGGA,011439.250,3101.50145966,N,12126.36678221,E,1,20,1.14,29.96,M,11.10,M,0.0,*7C
$GPFPD,1237,436497.250,00,00,00,3101.5014597,12126.3667822,41.056,-0.009,-0.009,-0.000,00
$GPGGA,011440.250,3101.50142557,N,12126.36691960,E,1,20,1.14,30.05,M,11.10,M,0.0,*70
$GPFPD,1237,436498.250,00,00,00,3101.5014256,12126.3669196,41.144,-0.005,-0.009,-0.001,00
$GPGGA,011441.250,3101.50141753,N,12126.36692667,E,1,20,1.14,30.06,M,11.10,M,0.0,*7C
$GPFPD,1237,436499.250,00,00,00,3101.5014175,12126.3669267,41.153,-0.003,-0.008,0.024,00
$GPGGA,011442.250,3101.50140853,N,12126.36692407,E,1,20,1.14,30.05,M,11.10,M,0.0,*76
$GPFPD,1237,436500.250,00,00,00,3101.5014085,12126.3669241,41.141,-0.000,-0.009,0.014,00
$GPGGA,011443.250,3101.50139080,N,12126.36692909,E,1,20,1.14,30.00,M,11.10,M,0.0,*79
$GPFPD,1237,436501.250,00,00,00,3101.5013908,12126.3669291,41.091,-0.001,-0.008,0.003,00
$GPGGA,011444.250,3101.50137276,N,12126.36694392,E,1,20,1.14,29.96,M,11.10,M,0.0,*72
$GPFPD,1237,436502.250,00,00,00,3101.5013728,12126.3669439,41.057,-0.005,-0.008,-0.001,00
$GPGGA,011445.250,3101.50136770,N,12126.36696925,E,1,20,1.14,29.92,M,11.10,M,0.0,*71
$GPFPD,1237,436503.250,00,00,00,3101.5013677,12126.3669693,41.017,0.004,-0.008,-0.005,00
$GPGGA,011446.250,3101.50136361,N,12126.36700795,E,1,20,1.14,29.89,M,11.10,M,0.0,*77
$GPFPD,1237,436504.250,00,00,00,3101.5013636,12126.3670080,40.989,-0.002,-0.004,-0.014,00
$GPGGA,011447.250,3101.50138575,N,12126.36712563,E,1,20,1.14,29.75,M,11.10,M,0.0,*70
$GPFPD,1237,436505.250,00,00,00,3101.5013857,12126.3671256,40.850,0.000,-0.002,-0.003,00
$GPGGA,011448.250,3101.50133739,N,12126.36717173,E,1,20,1.14,29.81,M,11.10,M,0.0,*75
$GPFPD,1237,436506.250,00,00,00,3101.5013374,12126.3671717,40.901,0.003,-0.006,-0.001,00
$GPGGA,011449.250,3101.50133337,N,12126.36717410,E,1,20,1.14,29.82,M,11.10,M,0.0,*7D
$GPFPD,1237,436507.250,00,00,00,3101.5013334,12126.3671741,40.913,0.004,-0.001,0.013,00
$GPGGA,011450.250,3101.50132955,N,12126.36716487,E,1,20,1.14,29.83,M,11.10,M,0.0,*74
$GPFPD,1237,436508.250,00,00,00,3101.5013296,12126.3671649,40.925,0.003,-0.004,0.008,00
$GPGGA,011451.250,3101.50133010,N,12126.36714618,E,1,20,1.14,29.84,M,11.10,M,0.0,*7D
$GPFPD,1237,436509.250,00,00,00,3101.5013301,12126.3671462,40.935,-0.006,-0.004,0.008,00
$GPGGA,011452.250,3101.50134653,N,12126.36712858,E,1,20,1.14,29.80,M,11.10,M,0.0,*70
$GPFPD,1237,436510.250,00,00,00,3101.5013465,12126.3671286,40.897,0.002,-0.000,-0.009,00
$GPGGA,011453.250,3101.50135086,N,12126.36710813,E,1,20,1.14,29.76,M,11.10,M,0.0,*7A
$GPFPD,1237,436511.250,00,00,00,3101.5013509,12126.3671081,40.856,-0.009,-0.002,-0.013,00
$GPGGA,011454.250,3101.50134917,N,12126.36709304,E,1,20,1.14,29.74,M,11.10,M,0.0,*7A
$GPFPD,1237,436512.250,00,00,00,3101.5013492,12126.3670930,40.832,-0.008,-0.004,-0.011,00
$GPGGA,011455.250,3101.50134715,N,12126.36707854,E,1,20,1.14,29.74,M,11.10,M,0.0,*77
$GPFPD,1237,436513.250,00,00,00,3101.5013472,12126.3670785,40.832,-0.000,-0.004,-0.002,00
$GPGGA,011456.250,3101.50134221,N,12126.36708312,E,1,20,1.14,29.74,M,11.10,M,0.0,*70
$GPFPD,1237,436514.250,00,00,00,3101.5013422,12126.3670831,40.835,-0.000,-0.005,-0.001,00
$GPGGA,011457.250,3101.50132589,N,12126.36711124,E,1,20,1.14,29.75,M,11.10,M,0.0,*7C
$GPFPD,1237,436515.250,00,00,00,3101.5013259,12126.3671112,40.843,0.002,-0.011,-0.004,00
$GPGGA,011458.250,3101.50131169,N,12126.36712981,E,1,20,1.14,29.78,M,11.10,M,0.0,*73
$GPFPD,1237,436516.250,00,00,00,3101.5013117,12126.3671298,40.875,-0.007,0.000,0.016,00
$GPGGA,011459.250,3101.50130179,N,12126.36714036,E,1,20,1.14,29.80,M,11.10,M,0.0,*76
$GPFPD,1237,436517.250,00,00,00,3101.5013018,12126.3671404,40.891,-0.006,-0.003,-0.009,00
$GPGGA,011500.250,3101.50128749,N,12126.36715393,E,1,20,1.14,29.81,M,11.10,M,0.0,*7B
$GPFPD,1237,436518.250,00,00,00,3101.5012875,12126.3671539,40.902,-0.004,-0.005,-0.002,00
$GPGGA,011501.250,3101.50128471,N,12126.36716333,E,1,20,1.14,29.81,M,11.10,M,0.0,*7B
$GPFPD,1237,436519.250,00,00,00,3101.5012847,12126.3671633,40.901,-0.018,0.000,0.001,00
$GPGGA,011502.250,3101.50128272,N,12126.36714591,E,1,20,1.14,29.65,M,11.10,M,0.0,*7B
$GPFPD,1237,436520.250,00,00,00,3101.5012827,12126.3671459,40.749,-0.014,-0.005,0.000,00
$GPGGA,011503.250,3101.50125737,N,12126.36716977,E,1,20,1.14,29.53,M,11.10,M,0.0,*70
$GPFPD,1237,436521.250,00,00,00,3101.5012574,12126.3671698,40.630,-0.001,-0.003,0.014,00
$GPGGA,011504.250,3101.50122125,N,12126.36719517,E,1,20,1.14,29.45,M,11.10,M,0.0,*77
$GPFPD,1237,436522.250,00,00,00,3101.5012212,12126.3671952,40.544,-0.002,-0.006,0.005,00
$GPGGA,011505.250,3101.50120976,N,12126.36719320,E,1,20,1.14,29.46,M,11.10,M,0.0,*7B
$GPFPD,1237,436523.250,00,00,00,3101.5012098,12126.3671932,40.558,-0.006,-0.006,0.023,00
$GPGGA,011506.250,3101.50118828,N,12126.36718769,E,1,20,1.14,29.49,M,11.10,M,0.0,*7E
$GPFPD,1237,436524.250,00,00,00,3101.5011883,12126.3671877,40.583,-0.000,-0.012,0.011,00
$GPGGA,011507.250,3101.50118076,N,12126.36716476,E,1,20,1.14,29.50,M,11.10,M,0.0,*77
$GPFPD,1237,436525.250,00,00,00,3101.5011808,12126.3671648,40.600,0.003,-0.017,0.012,00
$GPGGA,011508.250,3101.50119702,N,12126.36713360,E,1,20,1.14,29.48,M,11.10,M,0.0,*71
$GPFPD,1237,436526.250,00,00,00,3101.5011970,12126.3671336,40.580,-0.000,-0.007,0.003,00
$GPGGA,011509.250,3101.50121228,N,12126.36708607,E,1,20,1.14,29.45,M,11.10,M,0.0,*75
$GPFPD,1237,436527.250,00,00,00,3101.5012123,12126.3670861,40.547,-0.002,-0.005,0.005,00
$GPGGA,011510.250,3101.50123405,N,12126.36703392,E,1,20,1.14,29.42,M,11.10,M,0.0,*73
$GPFPD,1237,436528.250,00,00,00,3101.5012340,12126.3670339,40.519,-0.002,-0.012,0.022,00
$GPGGA,011511.250,3101.50123725,N,12126.36698438,E,1,20,1.14,29.39,M,11.10,M,0.0,*7B
$GPFPD,1237,436529.250,00,00,00,3101.5012373,12126.3669844,40.488,0.001,-0.010,0.003,00
$GPGGA,011512.250,3101.50124409,N,12126.36694635,E,1,20,1.14,29.37,M,11.10,M,0.0,*7F
$GPFPD,1237,436530.250,00,00,00,3101.5012441,12126.3669463,40.468,0.000,-0.008,0.002,00
$GPGGA,011513.250,3101.50129582,N,12126.36680882,E,1,20,1.14,29.33,M,11.10,M,0.0,*72
$GPFPD,1237,436531.250,00,00,00,3101.5012958,12126.3668088,40.421,0.000,-0.003,-0.028,00
$GPGGA,011514.250,3101.50135089,N,12126.36673849,E,1,20,1.14,29.25,M,11.10,M,0.0,*7A
$GPFPD,1237,436532.250,00,00,00,3101.5013509,12126.3667385,40.342,-0.003,-0.008,-0.012,00
$GPGGA,011515.250,3101.50139320,N,12126.36669815,E,1,20,1.14,29.19,M,11.10,M,0.0,*7A
$GPFPD,1237,436533.250,00,00,00,3101.5013932,12126.3666982,40.281,-0.011,-0.009,-0.016,00
$GPGGA,011516.250,3101.50140831,N,12126.36668483,E,1,20,1.14,29.17,M,11.10,M,0.0,*70
$GPFPD,1237,436534.250,00,00,00,3101.5014083,12126.3666848,40.262,0.006,-0.004,0.002,00
$GPGGA,011517.250,3101.50141236,N,12126.36666779,E,1,20,1.14,29.15,M,11.10,M,0.0,*77
$GPFPD,1237,436535.250,00,00,00,3101.5014124,12126.3666678,40.241,-0.004,-0.005,0.002,00
$GPGGA,011518.250,3101.50141796,N,12126.36664754,E,1,20,1.14,29.15,M,11.10,M,0.0,*7A
$GPFPD,1237,436536.250,00,00,00,3101.5014180,12126.3666475,40.247,-0.006,-0.006,0.007,00
$GPGGA,011519.250,3101.50144260,N,12126.36658675,E,1,20,1.14,29.10,M,11.10,M,0.0,*7A
$GPFPD,1237,436537.250,00,00,00,3101.5014426,12126.3665867,40.198,0.004,-0.010,0.002,00
$GPGGA,011520.250,3101.50145126,N,12126.36657540,E,1,20,1.14,29.11,M,11.10,M,0.0,*7B
$GPFPD,1237,436538.250,00,00,00,3101.5014513,12126.3665754,40.201,0.002,-0.007,-0.000,00
$GPGGA,011521.250,3101.50145885,N,12126.36657762,E,1,20,1.14,29.09,M,11.10,M,0.0,*71
$GPFPD,1237,436539.250,00,00,00,3101.5014589,12126.3665776,40.187,-0.002,-0.002,-0.017,00
$GPGGA,011522.250,3101.50151257,N,12126.36658739,E,1,20,1.14,29.01,M,11.10,M,0.0,*7B
$GPFPD,1237,436540.250,00,00,00,3101.5015126,12126.3665874,40.103,-0.001,-0.004,-0.005,00
$GPGGA,011523.250,3101.50155829,N,12126.36660454,E,1,20,1.14,29.05,M,11.10,M,0.0,*7A
$GPFPD,1237,436541.250,00,00,00,3101.5015583,12126.3666045,40.151,-0.001,-0.004,-0.004,00
$GPGGA,011524.250,3101.50156513,N,12126.36661950,E,1,20,1.14,29.07,M,11.10,M,0.0,*70
$GPFPD,1237,436542.250,00,00,00,3101.5015651,12126.3666195,40.165,0.001,-0.007,0.002,00
$GPGGA,011525.250,3101.50157842,N,12126.36663922,E,1,20,1.14,29.09,M,11.10,M,0.0,*70
$GPFPD,1237,436543.250,00,00,00,3101.5015784,12126.3666392,40.189,-0.003,-0.004,0.012,00
$GPGGA,011526.250,3101.50158862,N,12126.36665073,E,1,20,1.14,29.10,M,11.10,M,0.0,*7D
$GPFPD,1237,436544.250,00,00,00,3101.5015886,12126.3666507,40.200,-0.003,-0.001,0.004,00
$GPGGA,011527.250,3101.50159742,N,12126.36667078,E,1,20,1.14,29.12,M,11.10,M,0.0,*7B
$GPFPD,1237,436545.250,00,00,00,3101.5015974,12126.3666708,40.213,-0.008,-0.009,-0.016,00
$GPGGA,011528.250,3101.50160253,N,12126.36668344,E,1,20,1.14,29.13,M,11.10,M,0.0,*79
$GPFPD,1237,436546.250,00,00,00,3101.5016025,12126.3666834,40.225,-0.002,-0.009,-0.007,00
$GPGGA,011529.250,3101.50160383,N,12126.36669321,E,1,20,1.14,29.16,M,11.10,M,0.0,*73
$GPFPD,1237,436547.250,00,00,00,3101.5016038,12126.3666932,40.258,-0.001,-0.010,0.002,00
$GPGGA,011530.250,3101.50159565,N,12126.36670247,E,1,20,1.14,29.20,M,11.10,M,0.0,*73
$GPFPD,1237,436548.250,00,00,00,3101.5015956,12126.3667025,40.297,0.009,-0.019,0.018,00
$GPGGA,011531.250,3101.50159390,N,12126.36670025,E,1,20,1.14,29.21,M,11.10,M,0.0,*79
$GPFPD,1237,436549.250,00,00,00,3101.5015939,12126.3667003,40.302,0.004,-0.011,0.006,00
$GPGGA,011532.250,3101.50160741,N,12126.36667246,E,1,20,1.14,29.17,M,11.10,M,0.0,*7C
$GPFPD,1237,436550.250,00,00,00,3101.5016074,12126.3666725,40.263,-0.002,-0.006,0.002,00
$GPGGA,011533.250,3101.50160743,N,12126.36665861,E,1,20,1.14,29.17,M,11.10,M,0.0,*72
$GPFPD,1237,436551.250,00,00,00,3101.5016074,12126.3666586,40.261,0.012,-0.004,0.003,00
$GPGGA,011534.250,3101.50160529,N,12126.36663979,E,1,20,1.14,29.17,M,11.10,M,0.0,*75
$GPFPD,1237,436552.250,00,00,00,3101.5016053,12126.3666398,40.261,0.005,-0.010,0.011,00
$GPGGA,011535.250,3101.50160262,N,12126.36661560,E,1,20,1.14,29.15,M,11.10,M,0.0,*78
$GPFPD,1237,436553.250,00,00,00,3101.5016026,12126.3666156,40.243,0.000,-0.007,0.003,00
$GPGGA,011536.250,3101.50160230,N,12126.36658987,E,1,20,1.14,29.14,M,11.10,M,0.0,*72
$GPFPD,1237,436554.250,00,00,00,3101.5016023,12126.3665899,40.238,-0.003,-0.011,-0.025,00
$GPGGA,011537.250,3101.50160487,N,12126.36655433,E,1,20,1.14,29.16,M,11.10,M,0.0,*74
$GPFPD,1237,436555.250,00,00,00,3101.5016049,12126.3665543,40.255,-0.005,-0.009,-0.011,00
$GPGGA,011538.250,3101.50159643,N,12126.36653161,E,1,20,1.14,29.20,M,11.10,M,0.0,*7A
$GPFPD,1237,436556.250,00,00,00,3101.5015964,12126.3665316,40.295,-0.004,-0.008,-0.004,00
$GPGGA,011539.250,3101.50157301,N,12126.36651378,E,1,20,1.14,29.23,M,11.10,M,0.0,*7D
$GPFPD,1237,436557.250,00,00,00,3101.5015730,12126.3665138,40.322,-0.011,-0.014,-0.011,00
$GPGGA,011540.250,3101.50156319,N,12126.36649155,E,1,20,1.14,29.24,M,11.10,M,0.0,*78
$GPFPD,1237,436558.250,00,00,00,3101.5015632,12126.3664916,40.339,-0.013,-0.007,-0.018,00
$GPGGA,011541.250,3101.50155570,N,12126.36649568,E,1,20,1.14,29.24,M,11.10,M,0.0,*79
$GPFPD,1237,436559.250,00,00,00,3101.5015557,12126.3664957,40.338,-0.003,-0.010,-0.018,00
$GPGGA,011542.250,3101.50154809,N,12126.36648985,E,1,20,1.14,29.25,M,11.10,M,0.0,*77
$GPFPD,1237,436560.250,00,00,00,3101.5015481,12126.3664898,40.347,-0.002,-0.008,-0.011,00
$GPGGA,011543.250,3101.50149499,N,12126.36644795,E,1,20,1.14,29.34,M,11.10,M,0.0,*7C
$GPFPD,1237,436561.250,00,00,00,3101.5014950,12126.3664480,40.436,-0.024,-0.002,-0.008,00
$GPGGA,011544.250,3101.50149233,N,12126.36643517,E,1,20,1.14,29.38,M,11.10,M,0.0,*7E
$GPFPD,1237,436562.250,00,00,00,3101.5014923,12126.3664352,40.473,-0.014,-0.004,0.006,00
$GPGGA,011545.250,3101.50147518,N,12126.36644252,E,1,20,1.14,29.52,M,11.10,M,0.0,*72
$GPFPD,1237,436563.250,00,00,00,3101.5014752,12126.3664425,40.616,-0.008,-0.005,0.007,00
$GPGGA,011546.250,3101.50143757,N,12126.36639944,E,1,20,1.14,29.68,M,11.10,M,0.0,*73
$GPFPD,1237,436564.250,00,00,00,3101.5014376,12126.3663994,40.775,0.001,-0.013,0.027,00
$GPGGA,011547.250,3101.50141104,N,12126.36643208,E,1,20,1.14,29.80,M,11.10,M,0.0,*78
$GPFPD,1237,436565.250,00,00,00,3101.5014110,12126.3664321,40.899,0.001,-0.009,0.010,00
$GPGGA,011548.250,3101.50139898,N,12126.36643107,E,1,20,1.14,29.82,M,11.10,M,0.0,*7A
$GPFPD,1237,436566.250,00,00,00,3101.5013990,12126.3664311,40.911,-0.003,-0.010,0.002,00
$GPGGA,011549.250,3101.50138861,N,12126.36644377,E,1,20,1.14,29.83,M,11.10,M,0.0,*7F
$GPFPD,1237,436567.250,00,00,00,3101.5013886,12126.3664438,40.922,0.007,-0.008,-0.017,00
$GPGGA,011550.250,3101.50135629,N,12126.36645106,E,1,20,1.14,29.79,M,11.10,M,0.0,*78
$GPFPD,1237,436568.250,00,00,00,3101.5013563,12126.3664511,40.890,0.002,-0.006,-0.021,00
$GPGGA,011551.250,3101.50135462,N,12126.36645140,E,1,20,1.14,29.79,M,11.10,M,0.0,*76
$GPFPD,1237,436569.250,00,00,00,3101.5013546,12126.3664514,40.886,0.005,-0.009,0.004,00
$GPGGA,011552.250,3101.50135815,N,12126.36644357,E,1,20,1.14,29.78,M,11.10,M,0.0,*7D
$GPFPD,1237,436570.250,00,00,00,3101.5013582,12126.3664436,40.881,0.001,-0.004,-0.004,00
$GPGGA,011553.250,3101.50134967,N,12126.36644147,E,1,20,1.14,29.80,M,11.10,M,0.0,*7D
$GPFPD,1237,436571.250,00,00,00,3101.5013497,12126.3664415,40.891,-0.007,-0.003,-0.008,00
$GPGGA,011554.250,3101.50133881,N,12126.36643814,E,1,20,1.14,29.83,M,11.10,M,0.0,*7F
$GPFPD,1237,436572.250,00,00,00,3101.5013388,12126.3664381,40.924,0.010,-0.003,0.010,00
$GPGGA,011555.250,3101.50133793,N,12126.36651228,E,1,20,1.14,29.89,M,11.10,M,0.0,*7E
$GPFPD,1237,436573.250,00,00,00,3101.5013379,12126.3665123,40.986,0.013,-0.003,0.001,00
$GPGGA,011556.250,3101.50133201,N,12126.36654811,E,1,20,1.14,29.91,M,11.10,M,0.0,*7F
$GPFPD,1237,436574.250,00,00,00,3101.5013320,12126.3665481,41.001,0.012,-0.010,-0.005,00
$GPGGA,011557.250,3101.50131872,N,12126.36656894,E,1,20,1.14,29.94,M,11.10,M,0.0,*78
$GPFPD,1237,436575.250,00,00,00,3101.5013187,12126.3665689,41.032,-0.005,-0.001,0.006,00
$GPGGA,011558.250,3101.50132025,N,12126.36659539,E,1,20,1.14,29.95,M,11.10,M,0.0,*7A
$GPFPD,1237,436576.250,00,00,00,3101.5013202,12126.3665954,41.049,-0.004,-0.004,0.004,00
$GPGGA,011559.250,3101.50132705,N,12126.36663002,E,1,20,1.14,29.97,M,11.10,M,0.0,*78
$GPFPD,1237,436577.250,00,00,00,3101.5013271,12126.3666300,41.063,0.015,-0.017,-0.008,00
$GPGGA,011600.250,3101.50133511,N,12126.36666131,E,1,20,1.14,29.94,M,11.10,M,0.0,*76
$GPFPD,1237,436578.250,00,00,00,3101.5013351,12126.3666613,41.040,0.010,-0.012,-0.021,00
$GPGGA,011601.250,3101.50134255,N,12126.36668101,E,1,20,1.14,29.96,M,11.10,M,0.0,*78
$GPFPD,1237,436579.250,00,00,00,3101.5013426,12126.3666810,41.060,0.005,-0.011,-0.009,00
$GPGGA,011602.250,3101.50133494,N,12126.36669521,E,1,20,1.14,29.96,M,11.10,M,0.0,*70
$GPFPD,1237,436580.250,00,00,00,3101.5013349,12126.3666952,41.057,0.002,-0.012,-0.013,00
$GPGGA,011603.250,3101.50134605,N,12126.36672931,E,1,20,1.14,30.02,M,11.10,M,0.0,*7E
$GPFPD,1237,436581.250,00,00,00,3101.5013461,12126.3667293,41.117,-0.002,0.001,0.013,00
$GPGGA,011604.250,3101.50133827,N,12126.36673147,E,1,20,1.14,30.03,M,11.10,M,0.0,*79
$GPFPD,1237,436582.250,00,00,00,3101.5013383,12126.3667315,41.122,0.001,-0.004,-0.000,00
$GPGGA,011605.250,3101.50129986,N,12126.36670102,E,1,20,1.14,30.10,M,11.10,M,0.0,*79
$GPFPD,1237,436583.250,00,00,00,3101.5012999,12126.3667010,41.195,-0.001,-0.004,0.000,00
$GPGGA,011606.250,3101.50128204,N,12126.36664922,E,1,20,1.14,30.18,M,11.10,M,0.0,*7D
$GPFPD,1237,436584.250,00,00,00,3101.5012820,12126.3666492,41.271,-0.000,-0.024,0.046,00
$GPGGA,011607.250,3101.50127850,N,12126.36665268,E,1,20,1.14,30.17,M,11.10,M,0.0,*73
$GPFPD,1237,436585.250,00,00,00,3101.5012785,12126.3666527,41.261,0.004,-0.018,0.012,00
$GPGGA,011608.250,3101.50127010,N,12126.36665976,E,1,20,1.14,30.16,M,11.10,M,0.0,*75
$GPFPD,1237,436586.250,00,00,00,3101.5012701,12126.3666598,41.252,0.007,-0.016,-0.001,00
$GPGGA,011609.250,3101.50126854,N,12126.36665625,E,1,20,1.14,30.13,M,11.10,M,0.0,*71
$GPFPD,1237,436587.250,00,00,00,3101.5012685,12126.3666562,41.229,0.005,-0.013,-0.008,00
$GPGGA,011610.250,3101.50126542,N,12126.36665541,E,1,20,1.14,30.13,M,11.10,M,0.0,*72
$GPFPD,1237,436588.250,00,00,00,3101.5012654,12126.3666554,41.222,-0.007,-0.011,-0.018,00
$GPGGA,011611.250,3101.50127484,N,12126.36665606,E,1,20,1.14,30.12,M,11.10,M,0.0,*78
$GPFPD,1237,436589.250,00,00,00,3101.5012748,12126.3666561,41.221,-0.003,-0.005,-0.016,00
$GPGGA,011612.250,3101.50126485,N,12126.36668216,E,1,20,1.14,30.13,M,11.10,M,0.0,*72
$GPFPD,1237,436590.250,00,00,00,3101.5012649,12126.3666822,41.222,0.021,-0.027,0.020,00
$GPGGA,011613.250,3101.50125735,N,12126.36671053,E,1,20,1.14,30.15,M,11.10,M,0.0,*75
$GPFPD,1237,436591.250,00,00,00,3101.5012574,12126.3667105,41.241,0.012,-0.014,0.007,00
$GPGGA,011614.250,3101.50124887,N,12126.36672351,E,1,20,1.14,30.14,M,11.10,M,0.0,*76
$GPFPD,1237,436592.250,00,00,00,3101.5012489,12126.3667235,41.238,0.008,-0.011,-0.002,00
$GPGGA,011615.250,3101.50124399,N,12126.36672580,E,1,20,1.14,30.26,M,11.10,M,0.0,*78
$GPFPD,1237,436593.250,00,00,00,3101.5012440,12126.3667258,41.356,0.005,-0.010,-0.002,00
$GPGGA,011616.250,3101.50124879,N,12126.36672638,E,1,20,1.14,30.27,M,11.10,M,0.0,*7F
$GPFPD,1237,436594.250,00,00,00,3101.5012488,12126.3667264,41.370,0.001,-0.009,0.003,00
$GPGGA,011617.250,3101.50125588,N,12126.36672421,E,1,20,1.14,30.29,M,11.10,M,0.0,*78
$GPFPD,1237,436595.250,00,00,00,3101.5012559,12126.3667242,41.389,0.008,-0.007,0.010,00
$GPGGA,011618.250,3101.50126265,N,12126.36672000,E,1,20,1.14,30.29,M,11.10,M,0.0,*77
$GPFPD,1237,436596.250,00,00,00,3101.5012626,12126.3667200,41.383,0.001,-0.004,0.003,00
$GPGGA,011619.250,3101.50125502,N,12126.36672907,E,1,20,1.14,30.26,M,11.10,M,0.0,*72
$GPFPD,1237,436597.250,00,00,00,3101.5012550,12126.3667291,41.355,0.001,-0.007,-0.010,00
$GPGGA,011620.250,3101.50124679,N,12126.36672905,E,1,20,1.14,30.25,M,11.10,M,0.0,*77
$GPFPD,1237,436598.250,00,00,00,3101.5012468,12126.3667291,41.348,-0.001,-0.009,-0.004,00
$GPGGA,011621.250,3101.50124352,N,12126.36672517,E,1,20,1.14,30.25,M,11.10,M,0.0,*75
$GPFPD,1237,436599.250,00,00,00,3101.5012435,12126.3667252,41.346,0.008,-0.008,0.009,00
$GPGGA,011622.250,3101.50123110,N,12126.36672702,E,1,20,1.14,30.26,M,11.10,M,0.0,*70
$GPFPD,1237,436600.250,00,00,00,3101.5012311,12126.3667270,41.354,0.010,-0.014,0.009,00
$GPGGA,011623.250,3101.50121716,N,12126.36672824,E,1,20,1.14,30.28,M,11.10,M,0.0,*76
$GPFPD,1237,436601.250,00,00,00,3101.5012172,12126.3667282,41.377,-0.001,-0.020,-0.000,00
$GPGGA,011624.250,3101.50120559,N,12126.36672198,E,1,20,1.14,30.33,M,11.10,M,0.0,*7D
$GPFPD,1237,436602.250,00,00,00,3101.5012056,12126.3667220,41.423,-0.003,-0.014,0.006,00
$GPGGA,011625.250,3101.50118809,N,12126.36671551,E,1,20,1.14,30.37,M,11.10,M,0.0,*79
$GPFPD,1237,436603.250,00,00,00,3101.5011881,12126.3667155,41.464,-0.002,-0.014,0.008,00
$GPGGA,011626.250,3101.50118141,N,12126.36669085,E,1,20,1.14,30.38,M,11.10,M,0.0,*75
$GPFPD,1237,436604.250,00,00,00,3101.5011814,12126.3666908,41.475,0.001,-0.007,-0.011,00
$GPGGA,011627.250,3101.50117581,N,12126.36669543,E,1,20,1.14,30.41,M,11.10,M,0.0,*72
$GPFPD,1237,436605.250,00,00,00,3101.5011758,12126.3666954,41.505,0.005,-0.009,0.002,00
$GPGGA,011628.250,3101.50117550,N,12126.36660808,E,1,20,1.14,30.47,M,11.10,M,0.0,*7C
$GPFPD,1237,436606.250,00,00,00,3101.5011755,12126.3666081,41.565,0.008,-0.011,0.007,00
$GPGGA,011629.250,3101.50118313,N,12126.36662088,E,1,20,1.14,30.51,M,11.10,M,0.0,*76
$GPFPD,1237,436607.250,00,00,00,3101.5011831,12126.3666209,41.606,0.002,-0.006,-0.009,00
$GPGGA,011630.250,3101.50117417,N,12126.36661143,E,1,20,1.14,30.53,M,11.10,M,0.0,*75
$GPFPD,1237,436608.250,00,00,00,3101.5011742,12126.3666114,41.626,-0.002,-0.005,-0.010,00
$GPGGA,011631.250,3101.50117182,N,12126.36660829,E,1,20,1.14,30.56,M,11.10,M,0.0,*7C
$GPFPD,1237,436609.250,00,00,00,3101.5011718,12126.3666083,41.652,-0.006,-0.002,-0.013,00
$GPGGA,011632.250,3101.50118356,N,12126.36658809,E,1,20,1.13,30.59,M,11.10,M,0.0,*7A
$GPFPD,1237,436610.250,00,00,00,3101.5011836,12126.3665881,41.686,-0.001,-0.012,0.030,00
$GPGGA,011633.250,3101.50118823,N,12126.36657684,E,1,20,1.13,30.58,M,11.10,M,0.0,*77
$GPFPD,1237,436611.250,00,00,00,3101.5011882,12126.3665768,41.677,0.004,-0.013,0.006,00
$GPGGA,011634.250,3101.50120048,N,12126.36657698,E,1,20,1.13,30.56,M,11.10,M,0.0,*7D
$GPFPD,1237,436612.250,00,00,00,3101.5012005,12126.3665770,41.657,0.004,-0.010,0.001,00
$GPGGA,011635.250,3101.50121537,N,12126.36657011,E,1,20,1.13,30.54,M,11.10,M,0.0,*75
$GPFPD,1237,436613.250,00,00,00,3101.5012154,12126.3665701,41.631,0.007,-0.011,0.021,00
$GPGGA,011636.250,3101.50122389,N,12126.36655682,E,1,20,1.13,30.52,M,11.10,M,0.0,*7E
$GPFPD,1237,436614.250,00,00,00,3101.5012239,12126.3665568,41.612,0.008,-0.014,0.008,00
$GPGGA,011637.250,3101.50123806,N,12126.36654042,E,1,20,1.13,30.51,M,11.10,M,0.0,*7A
$GPFPD,1237,436615.250,00,00,00,3101.5012381,12126.3665404,41.601,0.004,-0.009,0.008,00
$GPGGA,011638.250,3101.50124185,N,12126.36653825,E,1,20,1.13,30.49,M,11.10,M,0.0,*77
$GPFPD,1237,436616.250,00,00,00,3101.5012419,12126.3665382,41.581,-0.007,-0.023,0.001,00
$GPGGA,011639.250,3101.50124594,N,12126.36653230,E,1,20,1.13,30.46,M,11.10,M,0.0,*73
$GPFPD,1237,436617.250,00,00,00,3101.5012459,12126.3665323,41.551,-0.002,-0.016,-0.007,00
$GPGGA,011640.250,3101.50125516,N,12126.36652869,E,1,20,1.13,30.41,M,11.10,M,0.0,*76
$GPFPD,1237,436618.250,00,00,00,3101.5012552,12126.3665287,41.504,-0.000,-0.013,-0.010,00
$GPGGA,011641.250,3101.50125003,N,12126.36650880,E,1,20,1.13,30.39,M,11.10,M,0.0,*7C
$GPFPD,1237,436619.250,00,00,00,3101.5012500,12126.3665088,41.487,-0.013,-0.013,0.005,00
$GPGGA,011642.250,3101.50124433,N,12126.36651296,E,1,20,1.13,30.38,M,11.10,M,0.0,*74
$GPFPD,1237,436620.250,00,00,00,3101.5012443,12126.3665130,41.478,-0.001,-0.013,0.001,00
$GPGGA,011643.250,3101.50123469,N,12126.36651762,E,1,20,1.13,30.36,M,11.10,M,0.0,*7D
$GPFPD,1237,436621.250,00,00,00,3101.5012347,12126.3665176,41.458,-0.004,-0.011,-0.006,00
$GPGGA,011644.250,3101.50122069,N,12126.36652661,E,1,20,1.13,30.35,M,11.10,M,0.0,*7D
$GPFPD,1237,436622.250,00,00,00,3101.5012207,12126.3665266,41.444,-0.001,-0.002,0.014,00
$GPGGA,011645.250,3101.50121194,N,12126.36654070,E,1,20,1.13,30.33,M,11.10,M,0.0,*7A
$GPFPD,1237,436623.250,00,00,00,3101.5012119,12126.3665407,41.427,0.002,-0.008,-0.009,00
$GPGGA,011646.250,3101.50120145,N,12126.36655931,E,1,20,1.13,30.33,M,11.10,M,0.0,*79
$GPFPD,1237,436624.250,00,00,00,3101.5012015,12126.3665593,41.427,-0.000,-0.009,-0.004,00
$GPGGA,011647.250,3101.50118247,N,12126.36658174,E,1,20,1.13,30.32,M,11.10,M,0.0,*77
$GPFPD,1237,436625.250,00,00,00,3101.5011825,12126.3665817,41.415,-0.002,-0.002,-0.001,00
$GPGGA,011648.250,3101.50115765,N,12126.36660389,E,1,20,1.13,30.32,M,11.10,M,0.0,*7B
$GPFPD,1237,436626.250,00,00,00,3101.5011576,12126.3666039,41.412,-0.001,-0.012,-0.005,00
$GPGGA,011649.250,3101.50113884,N,12126.36662354,E,1,20,1.13,30.33,M,11.10,M,0.0,*7F
$GPFPD,1237,436627.250,00,00,00,3101.5011388,12126.3666235,41.426,0.004,-0.012,-0.001,00
$GPGGA,011650.250,3101.50113188,N,12126.36663573,E,1,20,1.13,30.33,M,11.10,M,0.0,*70
$GPFPD,1237,436628.250,00,00,00,3101.5011319,12126.3666357,41.424,0.003,-0.004,0.007,00
$GPGGA,011651.250,3101.50113140,N,12126.36665324,E,1,20,1.13,30.33,M,11.10,M,0.0,*77
$GPFPD,1237,436629.250,00,00,00,3101.5011314,12126.3666532,41.424,0.002,-0.006,0.000,00
$GPGGA,011652.250,3101.50113711,N,12126.36666510,E,1,20,1.13,30.34,M,11.10,M,0.0,*73
$GPFPD,1237,436630.250,00,00,00,3101.5011371,12126.3666651,41.432,-0.002,-0.006,0.000,00
$GPGGA,011653.250,3101.50114888,N,12126.36665922,E,1,20,1.13,30.34,M,11.10,M,0.0,*74
$GPFPD,1237,436631.250,00,00,00,3101.5011489,12126.3666592,41.437,0.010,-0.001,0.005,00
$GPGGA,011654.250,3101.50117189,N,12126.36662644,E,1,20,1.13,30.33,M,11.10,M,0.0,*77
$GPFPD,1237,436632.250,00,00,00,3101.5011719,12126.3666264,41.428,0.001,0.002,0.001,00
$GPGGA,011655.250,3101.50119340,N,12126.36661212,E,1,20,1.13,30.33,M,11.10,M,0.0,*7B
$GPFPD,1237,436633.250,00,00,00,3101.5011934,12126.3666121,41.430,-0.001,-0.005,-0.009,00
$GPGGA,011656.250,3101.50120989,N,12126.36658330,E,1,20,1.13,30.31,M,11.10,M,0.0,*74
$GPFPD,1237,436634.250,00,00,00,3101.5012099,12126.3665833,41.410,-0.000,-0.006,-0.009,00
$GPGGA,011657.250,3101.50120791,N,12126.36656343,E,1,20,1.13,30.30,M,11.10,M,0.0,*79
$GPFPD,1237,436635.250,00,00,00,3101.5012079,12126.3665634,41.396,0.003,-0.017,-0.000,00
$GPGGA,011658.250,3101.50120396,N,12126.36653564,E,1,20,1.13,30.28,M,11.10,M,0.0,*7A
$GPFPD,1237,436636.250,00,00,00,3101.5012040,12126.3665356,41.374,-0.002,-0.014,-0.003,00
$GPGGA,011659.250,3101.50119533,N,12126.36650683,E,1,20,1.13,30.27,M,11.10,M,0.0,*7E
$GPFPD,1237,436637.250,00,00,00,3101.5011953,12126.3665068,41.367,-0.002,-0.004,-0.008,00
$GPGGA,011700.250,3101.50117706,N,12126.36646804,E,1,20,1.13,30.28,M,11.10,M,0.0,*70
$GPFPD,1237,436638.250,00,00,00,3101.5011771,12126.3664680,41.381,-0.002,-0.008,-0.001,00
$GPGGA,011701.250,3101.50116657,N,12126.36643118,E,1,20,1.13,30.31,M,11.10,M,0.0,*7C
$GPFPD,1237,436639.250,00,00,00,3101.5011666,12126.3664312,41.401,0.009,-0.014,0.000,00
$GPGGA,011702.250,3101.50116151,N,12126.36639741,E,1,20,1.13,30.33,M,11.10,M,0.0,*7B
$GPFPD,1237,436640.250,00,00,00,3101.5011615,12126.3663974,41.426,0.010,-0.011,0.000,00
$GPGGA,011703.250,3101.50116599,N,12126.36637082,E,1,20,1.13,30.33,M,11.10,M,0.0,*7C
$GPFPD,1237,436641.250,00,00,00,3101.5011660,12126.3663708,41.425,0.004,0.007,-0.032,00
$GPGGA,011704.250,3101.50116564,N,12126.36633986,E,1,20,1.13,30.33,M,11.10,M,0.0,*70
$GPFPD,1237,436642.250,00,00,00,3101.5011656,12126.3663399,41.422,0.001,0.004,-0.021,00
$GPGGA,011705.250,3101.50117351,N,12126.36632771,E,1,20,1.13,30.33,M,11.10,M,0.0,*77
$GPFPD,1237,436643.250,00,00,00,3101.5011735,12126.3663277,41.422,0.002,0.000,-0.006,00
$GPGGA,011706.250,3101.50119053,N,12126.36633238,E,1,20,1.13,30.22,M,11.10,M,0.0,*72
$GPFPD,1237,436644.250,00,00,00,3101.5011905,12126.3663324,41.318,-0.001,-0.003,-0.010,00
$GPGGA,011707.250,3101.50119587,N,12126.36634295,E,1,20,1.13,30.19,M,11.10,M,0.0,*77
$GPFPD,1237,436645.250,00,00,00,3101.5011959,12126.3663429,41.284,0.001,0.001,0.002,00
$GPGGA,011708.250,3101.50119509,N,12126.36634361,E,1,20,1.13,30.14,M,11.10,M,0.0,*79
$GPFPD,1237,436646.250,00,00,00,3101.5011951,12126.3663436,41.232,-0.001,0.000,-0.000,00
$GPGGA,011709.250,3101.50119019,N,12126.36636457,E,1,20,1.13,30.07,M,11.10,M,0.0,*7E
$GPFPD,1237,436647.250,00,00,00,3101.5011902,12126.3663646,41.167,0.005,-0.014,-0.011,00
$GPGGA,011710.250,3101.50118633,N,12126.36640205,E,1,20,1.13,29.99,M,11.10,M,0.0,*76
$GPFPD,1237,436648.250,00,00,00,3101.5011863,12126.3664020,41.084,-0.002,-0.005,-0.013,00
$GPGGA,011711.250,3101.50118278,N,12126.36642759,E,1,20,1.13,29.95,M,11.10,M,0.0,*7E
$GPFPD,1237,436649.250,00,00,00,3101.5011828,12126.3664276,41.047,-0.004,-0.004,-0.006,00
$GPGGA,011712.250,3101.50116983,N,12126.36650756,E,1,20,1.13,29.76,M,11.10,M,0.0,*7D
$GPFPD,1237,436650.250,00,00,00,3101.5011698,12126.3665076,40.860,0.008,0.002,0.019,00
$GPGGA,011713.250,3101.50116304,N,12126.36653466,E,1,20,1.13,29.73,M,11.10,M,0.0,*7F
$GPFPD,1237,436651.250,00,00,00,3101.5011630,12126.3665347,40.828,-0.000,-0.002,0.010,00
$GPGGA,011714.250,3101.50114405,N,12126.36659850,E,1,20,1.13,29.70,M,11.10,M,0.0,*7C
$GPFPD,1237,436652.250,00,00,00,3101.5011440,12126.3665985,40.797,0.000,-0.004,0.002,00
$GPGGA,011715.250,3101.50112654,N,12126.36661447,E,1,20,1.13,29.67,M,11.10,M,0.0,*7A
$GPFPD,1237,436653.250,00,00,00,3101.5011265,12126.3666145,40.769,-0.010,-0.014,-0.025,00
$GPGGA,011716.250,3101.50112531,N,12126.36659203,E,1,20,1.13,29.64,M,11.10,M,0.0,*77
$GPFPD,1237,436654.250,00,00,00,3101.5011253,12126.3665920,40.734,-0.008,-0.010,-0.020,00
$GPGGA,011717.250,3101.50112825,N,12126.36657775,E,1,20,1.13,29.63,M,11.10,M,0.0,*73
$GPFPD,1237,436655.250,00,00,00,3101.5011283,12126.3665777,40.725,-0.002,0.001,-0.002,00
$GPGGA,011718.250,3101.50112646,N,12126.36654682,E,1,20,1.13,29.74,M,11.10,M,0.0,*7B
$GPFPD,1237,436656.250,00,00,00,3101.5011265,12126.3665468,40.836,0.002,-0.001,-0.008,00
$GPGGA,011719.250,3101.50111463,N,12126.36653826,E,1,20,1.13,29.76,M,11.10,M,0.0,*79
$GPFPD,1237,436657.250,00,00,00,3101.5011146,12126.3665383,40.860,-0.007,-0.020,-0.019,00
$GPGGA,011720.250,3101.50110078,N,12126.36653669,E,1,20,1.13,29.81,M,11.10,M,0.0,*71
$GPFPD,1237,436658.250,00,00,00,3101.5011008,12126.3665367,40.903,-0.003,-0.012,-0.016,00
$GPGGA,011721.250,3101.50109076,N,12126.36653161,E,1,20,1.13,29.87,M,11.10,M,0.0,*7F
$GPFPD,1237,436659.250,00,00,00,3101.5010908,12126.3665316,40.966,-0.002,-0.011,-0.005,00
$GPGGA,011722.250,3101.50109496,N,12126.36652303,E,1,20,1.28,29.90,M,11.10,M,0.0,*7F
$GPFPD,1237,436660.250,00,00,00,3101.5010950,12126.3665230,40.992,-0.003,-0.010,-0.005,00
$GPGGA,011723.250,3101.50108708,N,12126.36653097,E,1,20,1.13,29.95,M,11.10,M,0.0,*79
$GPFPD,1237,436661.250,00,00,00,3101.5010871,12126.3665310,41.046,0.018,-0.012,0.038,00
$GPGGA,011724.250,3101.50108250,N,12126.36654427,E,1,20,1.13,30.01,M,11.10,M,0.0,*7B
$GPFPD,1237,436662.250,00,00,00,3101.5010825,12126.3665443,41.108,0.011,-0.008,0.023,00
$GPGGA,011725.250,3101.50106401,N,12126.36656301,E,1,20,1.13,30.04,M,11.10,M,0.0,*72
$GPFPD,1237,436663.250,00,00,00,3101.5010640,12126.3665630,41.132,0.005,-0.013,0.009,00
$GPGGA,011726.250,3101.50104923,N,12126.36658651,E,1,20,1.13,30.06,M,11.10,M,0.0,*72
$GPFPD,1237,436664.250,00,00,00,3101.5010492,12126.3665865,41.157,0.006,-0.014,0.005,00
$GPGGA,011727.250,3101.50103355,N,12126.36666617,E,1,20,1.13,30.24,M,11.10,M,0.0,*70
$GPFPD,1237,436665.250,00,00,00,3101.5010336,12126.3666662,41.339,0.008,-0.006,0.014,00
$GPGGA,011728.250,3101.50100475,N,12126.36673080,E,1,20,1.13,30.39,M,11.10,M,0.0,*79
$GPFPD,1237,436666.250,00,00,00,3101.5010048,12126.3667308,41.486,0.005,-0.008,0.011,00
$GPGGA,011729.250,3101.50100418,N,12126.36673878,E,1,20,1.13,30.41,M,11.10,M,0.0,*73
$GPFPD,1237,436667.250,00,00,00,3101.5010042,12126.3667388,41.506,0.006,-0.017,0.006,00
$GPGGA,011730.250,3101.50100918,N,12126.36678495,E,1,19,1.28,30.47,M,11.10,M,0.0,*76
$GPFPD,1237,436668.250,00,00,00,3101.5010092,12126.3667849,41.562,-0.003,-0.010,0.006,00
$GPGGA,011731.250,3101.50100999,N,12126.36678425,E,1,20,1.13,30.45,M,11.10,M,0.0,*75
$GPFPD,1237,436669.250,00,00,00,3101.5010100,12126.3667842,41.543,-0.004,-0.011,-0.002,00
$GPGGA,011732.250,3101.50101750,N,12126.36677581,E,1,20,1.13,30.44,M,11.10,M,0.0,*7D
$GPFPD,1237,436670.250,00,00,00,3101.5010175,12126.3667758,41.535,-0.008,-0.010,-0.003,00
$GPGGA,011733.250,3101.50102384,N,12126.36676551,E,1,20,1.13,30.41,M,11.10,M,0.0,*7B
$GPFPD,1237,436671.250,00,00,00,3101.5010238,12126.3667655,41.510,-0.007,-0.001,-0.016,00
$GPGGA,011734.250,3101.50106893,N,12126.36673050,E,1,20,1.13,30.29,M,11.10,M,0.0,*7A
$GPFPD,1237,436672.250,00,00,00,3101.5010689,12126.3667305,41.383,-0.012,-0.006,-0.004,00
$GPGGA,011735.250,3101.50106908,N,12126.36672446,E,1,20,1.13,30.29,M,11.10,M,0.0,*7A
$GPFPD,1237,436673.250,00,00,00,3101.5010691,12126.3667245,41.386,-0.003,-0.007,0.009,00
$GPGGA,011736.250,3101.50106434,N,12126.36662996,E,1,20,1.13,30.17,M,11.10,M,0.0,*77
$GPFPD,1237,436674.250,00,00,00,3101.5010643,12126.3666300,41.266,-0.006,-0.008,0.009,00
$GPGGA,011737.250,3101.50105963,N,12126.36661044,E,1,20,1.13,30.14,M,11.10,M,0.0,*7C
$GPFPD,1237,436675.250,00,00,00,3101.5010596,12126.3666104,41.238,-0.006,-0.007,-0.019,00
$GPGGA,011738.250,3101.50106177,N,12126.36659527,E,1,20,1.13,30.11,M,11.10,M,0.0,*73
$GPFPD,1237,436676.250,00,00,00,3101.5010618,12126.3665953,41.203,-0.003,-0.005,-0.018,00
$GPGGA,011739.250,3101.50106101,N,12126.36657320,E,1,20,1.13,30.08,M,11.10,M,0.0,*74
$GPFPD,1237,436677.250,00,00,00,3101.5010610,12126.3665732,41.181,-0.013,-0.018,0.001,00
$GPGGA,011740.250,3101.50106844,N,12126.36656189,E,1,20,1.13,30.07,M,11.10,M,0.0,*7D
$GPFPD,1237,436678.250,00,00,00,3101.5010684,12126.3665619,41.168,-0.002,-0.011,0.006,00
$GPGGA,011741.250,3101.50108066,N,12126.36655544,E,1,20,1.13,30.03,M,11.10,M,0.0,*78
$GPFPD,1237,436679.250,00,00,00,3101.5010807,12126.3665554,41.122,-0.004,-0.007,-0.002,00
$GPGGA,011742.250,3101.50109667,N,12126.36655102,E,1,20,1.13,30.01,M,11.10,M,0.0,*79
$GPFPD,1237,436680.250,00,00,00,3101.5010967,12126.3665510,41.106,-0.014,0.011,0.005,00
$GPGGA,011743.250,3101.50116915,N,12126.36656436,E,1,20,1.13,29.91,M,11.10,M,0.0,*7C
$GPFPD,1237,436681.250,00,00,00,3101.5011691,12126.3665644,41.002,-0.005,0.003,-0.001,00
$GPGGA,011744.250,3101.50121239,N,12126.36656396,E,1,20,1.13,29.88,M,11.10,M,0.0,*7F
$GPFPD,1237,436682.250,00,00,00,3101.5012124,12126.3665640,40.974,-0.006,-0.004,0.003,00
$GPGGA,011745.250,3101.50128050,N,12126.36657585,E,1,20,1.13,29.83,M,11.10,M,0.0,*74
$GPFPD,1237,436683.250,00,00,00,3101.5012805,12126.3665759,40.926,-0.018,-0.010,0.018,00
$GPGGA,011746.250,3101.50131420,N,12126.36659115,E,1,20,1.13,29.82,M,11.10,M,0.0,*7E
$GPFPD,1237,436684.250,00,00,00,3101.5013142,12126.3665911,40.920,-0.010,-0.006,0.006,00
$GPGGA,011747.250,3101.50131630,N,12126.36659256,E,1,20,1.13,29.79,M,11.10,M,0.0,*7C
$GPFPD,1237,436685.250,00,00,00,3101.5013163,12126.3665926,40.889,-0.001,-0.007,-0.007,00
$GPGGA,011748.250,3101.50131936,N,12126.36658993,E,1,20,1.28,29.79,M,11.10,M,0.0,*71
$GPFPD,1237,436686.250,00,00,00,3101.5013194,12126.3665899,40.886,-0.002,-0.007,-0.008,00
$GPGGA,011749.250,3101.50132060,N,12126.36658962,E,1,20,1.13,29.78,M,11.10,M,0.0,*7E
$GPFPD,1237,436687.250,00,00,00,3101.5013206,12126.3665896,40.872,-0.000,-0.013,-0.027,00
$GPGGA,011750.250,3101.50131913,N,12126.36658022,E,1,20,1.13,29.79,M,11.10,M,0.0,*74
$GPFPD,1237,436688.250,00,00,00,3101.5013191,12126.3665802,40.890,-0.003,-0.013,-0.003,00
$GPGGA,011751.250,3101.50131380,N,12126.36657040,E,1,20,1.13,29.81,M,11.10,M,0.0,*79
$GPFPD,1237,436689.250,00,00,00,3101.5013138,12126.3665704,40.903,-0.001,-0.014,-0.000,00
$GPGGA,011752.250,3101.50130646,N,12126.36655828,E,1,20,1.13,29.84,M,11.10,M,0.0,*75
$GPFPD,1237,436690.250,00,00,00,3101.5013065,12126.3665583,40.938,-0.005,-0.006,0.007,00
$GPGGA,011753.250,3101.50131854,N,12126.36654192,E,1,20,1.13,29.84,M,11.10,M,0.0,*71
$GPFPD,1237,436691.250,00,00,00,3101.5013185,12126.3665419,40.939,-0.012,-0.004,0.002,00
$GPGGA,011754.250,3101.50131977,N,12126.36654113,E,1,20,1.13,29.83,M,11.10,M,0.0,*78
$GPFPD,1237,436692.250,00,00,00,3101.5013198,12126.3665411,40.925,0.006,-0.013,-0.015,00
$GPGGA,011755.250,3101.50132584,N,12126.36655540,E,1,20,1.13,29.80,M,11.10,M,0.0,*7A
$GPFPD,1237,436693.250,00,00,00,3101.5013258,12126.3665554,40.891,0.002,-0.009,-0.016,00
$GPGGA,011756.250,3101.50132503,N,12126.36656597,E,1,20,1.13,29.77,M,11.10,M,0.0,*77
$GPFPD,1237,436694.250,00,00,00,3101.5013250,12126.3665660,40.861,-0.002,-0.023,0.005,00
$GPGGA,011757.250,3101.50131050,N,12126.36660664,E,1,20,1.13,29.77,M,11.10,M,0.0,*7C
$GPFPD,1237,436695.250,00,00,00,3101.5013105,12126.3666066,40.863,-0.005,-0.014,-0.007,00
$GPGGA,011758.250,3101.50129677,N,12126.36660350,E,1,20,1.13,29.71,M,11.10,M,0.0,*7D
$GPFPD,1237,436696.250,00,00,00,3101.5012968,12126.3666035,40.805,-0.004,-0.009,-0.014,00
$GPGGA,011759.250,3101.50128366,N,12126.36661968,E,1,20,1.13,29.70,M,11.10,M,0.0,*79
$GPFPD,1237,436697.250,00,00,00,3101.5012837,12126.3666197,40.794,0.010,-0.009,-0.023,00
$GPGGA,011800.250,3101.50128108,N,12126.36661751,E,1,20,1.13,29.70,M,11.10,M,0.0,*74
$GPFPD,1237,436698.250,00,00,00,3101.5012811,12126.3666175,40.794,-0.002,-0.005,-0.021,00
$GPGGA,011801.250,3101.50127002,N,12126.36661272,E,1,20,1.13,29.74,M,11.10,M,0.0,*71
$GPFPD,1237,436699.250,00,00,00,3101.5012700,12126.3666127,40.836,0.002,-0.005,-0.009,00
$GPGGA,011802.250,3101.50126811,N,12126.36656915,E,1,20,1.13,29.87,M,11.10,M,0.0,*7B
$GPFPD,1237,436700.250,00,00,00,3101.5012681,12126.3665692,40.965,-0.001,-0.005,-0.007,00
$GPGGA,011803.250,3101.50127322,N,12126.36652022,E,1,20,1.13,29.93,M,11.10,M,0.0,*7C
$GPFPD,1237,436701.250,00,00,00,3101.5012732,12126.3665202,41.028,-0.003,-0.001,-0.023,00
$GPGGA,011804.250,3101.50127702,N,12126.36649312,E,1,20,1.13,29.93,M,11.10,M,0.0,*77
$GPFPD,1237,436702.250,00,00,00,3101.5012770,12126.3664931,41.029,-0.012,0.004,-0.018,00
$GPGGA,011805.250,3101.50127723,N,12126.36648193,E,1,19,1.28,29.90,M,11.10,M,0.0,*7E
$GPFPD,1237,436703.250,00,00,00,3101.5012772,12126.3664819,41.000,-0.008,0.000,-0.021,00
$GPGGA,011806.250,3101.50127197,N,12126.36644995,E,1,20,1.13,29.89,M,11.10,M,0.0,*7C
$GPFPD,1237,436704.250,00,00,00,3101.5012720,12126.3664500,40.990,0.014,-0.007,0.081,00
$GPGGA,011807.250,3101.50126938,N,12126.36646182,E,1,20,1.13,29.93,M,11.10,M,0.0,*76
$GPFPD,1237,436705.250,00,00,00,3101.5012694,12126.3664618,41.022,0.015,-0.004,0.015,00
$GPGGA,011808.250,3101.50125620,N,12126.36646952,E,1,20,1.13,29.95,M,11.10,M,0.0,*7F
$GPFPD,1237,436706.250,00,00,00,3101.5012562,12126.3664695,41.044,0.010,-0.005,0.001,00
$GPGGA,011809.250,3101.50124761,N,12126.36647236,E,1,20,1.13,29.96,M,11.10,M,0.0,*70
$GPFPD,1237,436707.250,00,00,00,3101.5012476,12126.3664724,41.059,0.008,-0.006,-0.007,00
$GPGGA,011810.250,3101.50124272,N,12126.36648335,E,1,20,1.13,29.97,M,11.10,M,0.0,*73
$GPFPD,1237,436708.250,00,00,00,3101.5012427,12126.3664834,41.066,0.015,-0.014,-0.003,00
$GPGGA,011811.250,3101.50124112,N,12126.36649216,E,1,20,1.13,29.99,M,11.10,M,0.0,*78
$GPFPD,1237,436709.250,00,00,00,3101.5012411,12126.3664922,41.090,0.008,-0.009,-0.002,00
$GPGGA,011812.250,3101.50125161,N,12126.36649794,E,1,20,1.13,30.00,M,11.10,M,0.0,*79
$GPFPD,1237,436710.250,00,00,00,3101.5012516,12126.3664979,41.091,-0.000,-0.014,-0.021,00
$GPGGA,011813.250,3101.50134466,N,12126.36642386,E,1,20,1.13,29.96,M,11.10,M,0.0,*71
$GPFPD,1237,436711.250,00,00,00,3101.5013447,12126.3664239,41.052,0.005,-0.012,-0.006,00
$GPGGA,011814.250,3101.50136234,N,12126.36641031,E,1,20,1.13,29.93,M,11.10,M,0.0,*7C
$GPFPD,1237,436712.250,00,00,00,3101.5013623,12126.3664103,41.030,0.002,-0.009,-0.004,00
$GPGGA,011815.250,3101.50138294,N,12126.36639796,E,1,20,1.13,29.93,M,11.10,M,0.0,*7C
$GPFPD,1237,436713.250,00,00,00,3101.5013829,12126.3663980,41.023,0.001,-0.003,0.006,00
$GPGGA,011816.250,3101.50140243,N,12126.36638105,E,1,20,1.13,29.90,M,11.10,M,0.0,*74
$GPFPD,1237,436714.250,00,00,00,3101.5014024,12126.3663810,40.995,-0.010,0.002,-0.012,00
$GPGGA,011817.250,3101.50145280,N,12126.36633606,E,1,20,1.13,29.89,M,11.10,M,0.0,*78
$GPFPD,1237,436715.250,00,00,00,3101.5014528,12126.3663361,40.987,-0.012,-0.002,-0.008,00
$GPGGA,011818.250,3101.50146007,N,12126.36632109,E,1,20,1.13,29.89,M,11.10,M,0.0,*70
$GPFPD,1237,436716.250,00,00,00,3101.5014601,12126.3663211,40.987,-0.001,0.006,-0.004,00
$GPGGA,011819.250,3101.50146728,N,12126.36629519,E,1,20,1.13,29.87,M,11.10,M,0.0,*7A
$GPFPD,1237,436717.250,00,00,00,3101.5014673,12126.3662952,40.970,-0.008,-0.001,-0.015,00
$GPGGA,011820.250,3101.50148725,N,12126.36626213,E,1,20,1.13,29.98,M,11.10,M,0.0,*7F
$GPFPD,1237,436718.250,00,00,00,3101.5014873,12126.3662621,41.078,-0.004,-0.003,0.002,00
$GPGGA,011821.250,3101.50147776,N,12126.36625389,E,1,20,1.13,30.01,M,11.10,M,0.0,*7E
$GPFPD,1237,436719.250,00,00,00,3101.5014778,12126.3662539,41.102,-0.001,-0.006,0.005,00
$GPGGA,011822.250,3101.50144307,N,12126.36624880,E,1,20,1.13,30.07,M,11.10,M,0.0,*79
$GPFPD,1237,436720.250,00,00,00,3101.5014431,12126.3662488,41.167,-0.018,-0.004,-0.003,00
$GPGGA,011823.250,3101.50142305,N,12126.36626078,E,1,20,1.13,30.09,M,11.10,M,0.0,*7F
$GPFPD,1237,436721.250,00,00,00,3101.5014230,12126.3662608,41.189,-0.012,-0.005,-0.009,00
$GPGGA,011824.250,3101.50142106,N,12126.36625127,E,1,20,1.13,30.07,M,11.10,M,0.0,*7F
$GPFPD,1237,436722.250,00,00,00,3101.5014211,12126.3662513,41.167,-0.015,0.003,-0.027,00
$GPGGA,011825.250,3101.50142602,N,12126.36623607,E,1,20,1.13,30.04,M,11.10,M,0.0,*7D
$GPFPD,1237,436723.250,00,00,00,3101.5014260,12126.3662361,41.136,-0.010,-0.002,-0.024,00
$GPGGA,011826.250,3101.50138867,N,12126.36621831,E,1,20,1.13,30.06,M,11.10,M,0.0,*75
$GPFPD,1237,436724.250,00,00,00,3101.5013887,12126.3662183,41.158,-0.009,-0.004,-0.006,00
$GPGGA,011827.250,3101.50138038,N,12126.36619511,E,1,20,1.13,30.03,M,11.10,M,0.0,*77
$GPFPD,1237,436725.250,00,00,00,3101.5013804,12126.3661951,41.125,-0.011,-0.003,-0.007,00
$GPGGA,011828.250,3101.50138598,N,12126.36619351,E,1,20,1.13,30.00,M,11.10,M,0.0,*76
$GPFPD,1237,436726.250,00,00,00,3101.5013860,12126.3661935,41.095,-0.012,0.004,-0.009,00
$GPGGA,011829.250,3101.50138532,N,12126.36620294,E,1,20,1.13,29.96,M,11.10,M,0.0,*72
$GPFPD,1237,436727.250,00,00,00,3101.5013853,12126.3662029,41.058,-0.005,-0.007,-0.038,00
$GPGGA,011830.250,3101.50138209,N,12126.36621992,E,1,20,1.13,29.97,M,11.10,M,0.0,*78
$GPFPD,1237,436728.250,00,00,00,3101.5013821,12126.3662199,41.062,-0.005,-0.006,-0.029,00
$GPGGA,011831.250,3101.50135593,N,12126.36629858,E,1,20,1.13,29.95,M,11.10,M,0.0,*7D
$GPFPD,1237,436729.250,00,00,00,3101.5013559,12126.3662986,41.043,-0.001,-0.011,-0.008,00
$GPGGA,011832.250,3101.50135314,N,12126.36641152,E,1,20,1.13,30.06,M,11.10,M,0.0,*78
$GPFPD,1237,436730.250,00,00,00,3101.5013531,12126.3664115,41.157,0.006,-0.011,-0.005,00
$GPGGA,011833.250,3101.50135485,N,12126.36651456,E,1,20,1.13,30.18,M,11.10,M,0.0,*79
$GPFPD,1237,436731.250,00,00,00,3101.5013548,12126.3665146,41.278,0.026,-0.015,-0.001,00
$GPGGA,011834.250,3101.50135678,N,12126.36654527,E,1,20,1.13,30.20,M,11.10,M,0.0,*77
$GPFPD,1237,436732.250,00,00,00,3101.5013568,12126.3665453,41.298,0.011,-0.005,-0.002,00
$GPGGA,011835.250,3101.50134702,N,12126.36660915,E,1,20,1.13,30.37,M,11.10,M,0.0,*77
$GPFPD,1237,436733.250,00,00,00,3101.5013470,12126.3666092,41.461,0.001,-0.002,-0.010,00
$GPGGA,011836.250,3101.50134207,N,12126.36661992,E,1,20,1.13,30.38,M,11.10,M,0.0,*75
$GPFPD,1237,436734.250,00,00,00,3101.5013421,12126.3666199,41.472,0.006,-0.006,-0.013,00
$GPGGA,011837.250,3101.50132638,N,12126.36662888,E,1,20,1.13,30.41,M,11.10,M,0.0,*7D
$GPFPD,1237,436735.250,00,00,00,3101.5013264,12126.3666289,41.505,0.007,-0.010,0.010,00
$GPGGA,011838.250,3101.50129942,N,12126.36662070,E,1,20,1.13,30.48,M,11.10,M,0.0,*7C
$GPFPD,1237,436736.250,00,00,00,3101.5012994,12126.3666207,41.575,0.005,-0.007,0.006,00
$GPGGA,011839.250,3101.50128752,N,12126.36665137,E,1,20,1.13,30.50,M,11.10,M,0.0,*7F
$GPFPD,1237,436737.250,00,00,00,3101.5012875,12126.3666514,41.592,0.008,-0.016,0.012,00
$GPGGA,011840.250,3101.50130282,N,12126.36664911,E,1,20,1.13,30.48,M,11.10,M,0.0,*74
$GPFPD,1237,436738.250,00,00,00,3101.5013028,12126.3666491,41.576,0.005,-0.006,-0.005,00
$GPGGA,011841.250,3101.50127710,N,12126.36664034,E,1,20,1.13,30.47,M,11.10,M,0.0,*7C
$GPFPD,1237,436739.250,00,00,00,3101.5012771,12126.3666403,41.567,0.003,-0.013,-0.008,00
$GPGGA,011842.250,3101.50127487,N,12126.36657800,E,1,20,1.28,30.36,M,11.10,M,0.0,*73
$GPFPD,1237,436740.250,00,00,00,3101.5012749,12126.3665780,41.457,0.002,-0.000,-0.019,00
$GPGGA,011843.250,3101.50125632,N,12126.36654848,E,1,20,1.13,30.31,M,11.10,M,0.0,*7C
$GPFPD,1237,436741.250,00,00,00,3101.5012563,12126.3665485,41.410,0.001,-0.011,-0.017,00
$GPGGA,011844.250,3101.50125465,N,12126.36652513,E,1,20,1.13,30.31,M,11.10,M,0.0,*7E
$GPFPD,1237,436742.250,00,00,00,3101.5012546,12126.3665251,41.407,0.008,-0.009,-0.007,00
$GPGGA,011845.250,3101.50125430,N,12126.36649057,E,1,20,1.13,30.31,M,11.10,M,0.0,*70
$GPFPD,1237,436743.250,00,00,00,3101.5012543,12126.3664906,41.402,0.004,-0.008,-0.010,00
$GPGGA,011846.250,3101.50125739,N,12126.36647711,E,1,20,1.13,30.33,M,11.10,M,0.0,*70
$GPFPD,1237,436744.250,00,00,00,3101.5012574,12126.3664771,41.421,-0.006,-0.002,-0.014,00
$GPGGA,011847.250,3101.50126278,N,12126.36645872,E,1,20,1.13,30.31,M,11.10,M,0.0,*78
$GPFPD,1237,436745.250,00,00,00,3101.5012628,12126.3664587,41.406,0.005,-0.012,-0.012,00
$GPGGA,011848.250,3101.50126899,N,12126.36645739,E,1,20,1.13,30.28,M,11.10,M,0.0,*7A
$GPFPD,1237,436746.250,00,00,00,3101.5012690,12126.3664574,41.380,0.003,-0.005,-0.017,00
$GPGGA,011849.250,3101.50128153,N,12126.36644774,E,1,20,1.13,30.27,M,11.10,M,0.0,*7D
$GPFPD,1237,436747.250,00,00,00,3101.5012815,12126.3664477,41.368,-0.005,0.002,0.004,00
$GPGGA,011850.250,3101.50128841,N,12126.36643188,E,1,20,1.13,30.26,M,11.10,M,0.0,*7C
$GPFPD,1237,436748.250,00,00,00,3101.5012884,12126.3664319,41.360,-0.000,-0.003,0.001,00
$GPGGA,011851.250,3101.50129456,N,12126.36641792,E,1,20,1.13,30.26,M,11.10,M,0.0,*79
$GPFPD,1237,436749.250,00,00,00,3101.5012946,12126.3664179,41.355,-0.001,-0.009,-0.016,00
$GPGGA,011852.250,3101.50129884,N,12126.36639060,E,1,20,1.12,30.34,M,11.10,M,0.0,*7E
$GPFPD,1237,436750.250,00,00,00,3101.5012988,12126.3663906,41.440,0.006,-0.013,0.006,00
$GPGGA,011853.250,3101.50129256,N,12126.36637943,E,1,20,1.12,30.34,M,11.10,M,0.0,*7C
$GPFPD,1237,436751.250,00,00,00,3101.5012926,12126.3663794,41.435,0.001,-0.012,-0.006,00
$GPGGA,011854.250,3101.50128841,N,12126.36637664,E,1,20,1.12,30.36,M,11.10,M,0.0,*7E
$GPFPD,1237,436752.250,00,00,00,3101.5012884,12126.3663766,41.455,0.002,-0.010,-0.001,00
$GPGGA,011855.250,3101.50127700,N,12126.36633303,E,1,20,1.12,30.45,M,11.10,M,0.0,*7E
$GPFPD,1237,436753.250,00,00,00,3101.5012770,12126.3663330,41.542,0.004,-0.008,0.040,00
$GPGGA,011856.250,3101.50128335,N,12126.36625277,E,1,20,1.12,30.48,M,11.10,M,0.0,*78
$GPFPD,1237,436754.250,00,00,00,3101.5012833,12126.3662528,41.571,-0.001,-0.009,0.026,00
$GPGGA,011857.250,3101.50128093,N,12126.36618186,E,1,20,1.12,30.53,M,11.10,M,0.0,*7F
$GPFPD,1237,436755.250,00,00,00,3101.5012809,12126.3661819,41.626,0.002,-0.014,0.030,00
$GPGGA,011858.250,3101.50129628,N,12126.36618019,E,1,20,1.12,30.56,M,11.10,M,0.0,*75
$GPFPD,1237,436756.250,00,00,00,3101.5012963,12126.3661802,41.654,0.001,-0.014,-0.021,00
$GPGGA,011859.250,3101.50128618,N,12126.36618727,E,1,20,1.12,30.59,M,11.10,M,0.0,*73
$GPFPD,1237,436757.250,00,00,00,3101.5012862,12126.3661873,41.686,0.005,-0.013,0.004,00
$GPGGA,011900.250,3101.50128910,N,12126.36619977,E,1,20,1.12,30.59,M,11.10,M,0.0,*73
$GPFPD,1237,436758.250,00,00,00,3101.5012891,12126.3661998,41.685,0.004,-0.013,0.008,00
$GPGGA,011901.250,3101.50128726,N,12126.36620407,E,1,20,1.12,30.57,M,11.10,M,0.0,*77
$GPFPD,1237,436759.250,00,00,00,3101.5012873,12126.3662041,41.663,0.000,-0.009,-0.029,00
$GPGGA,011902.250,3101.50128453,N,12126.36622449,E,1,20,1.12,30.59,M,11.10,M,0.0,*73
$GPFPD,1237,436760.250,00,00,00,3101.5012845,12126.3662245,41.681,-0.004,-0.010,-0.017,00
$GPGGA,011903.250,3101.50128269,N,12126.36623260,E,1,20,1.12,30.56,M,11.10,M,0.0,*7E
$GPFPD,1237,436761.250,00,00,00,3101.5012827,12126.3662326,41.658,-0.005,-0.008,-0.017,00
$GPGGA,011904.250,3101.50127633,N,12126.36626191,E,1,20,1.12,30.58,M,11.10,M,0.0,*7B
$GPFPD,1237,436762.250,00,00,00,3101.5012763,12126.3662619,41.671,-0.015,0.004,-0.017,00
$GPGGA,011905.250,3101.50129293,N,12126.36629627,E,1,20,1.12,30.52,M,11.10,M,0.0,*75
$GPFPD,1237,436763.250,00,00,00,3101.5012929,12126.3662963,41.617,-0.005,0.000,-0.026,00
$GPGGA,011906.250,3101.50129549,N,12126.36635310,E,1,20,1.12,30.47,M,11.10,M,0.0,*7E
$GPFPD,1237,436764.250,00,00,00,3101.5012955,12126.3663531,41.562,0.000,-0.004,-0.022,00
$GPGGA,011907.250,3101.50132251,N,12126.36638157,E,1,20,1.12,30.42,M,11.10,M,0.0,*72
$GPFPD,1237,436765.250,00,00,00,3101.5013225,12126.3663816,41.517,0.003,-0.006,-0.011,00
$GPGGA,011908.250,3101.50132716,N,12126.36639011,E,1,20,1.12,30.41,M,11.10,M,0.0,*7A
$GPFPD,1237,436766.250,00,00,00,3101.5013272,12126.3663901,41.510,0.002,-0.003,-0.004,00
$GPGGA,011909.250,3101.50133498,N,12126.36640585,E,1,20,1.12,30.40,M,11.10,M,0.0,*78
$GPFPD,1237,436767.250,00,00,00,3101.5013350,12126.3664058,41.495,0.001,-0.002,-0.009,00
$GPGGA,011910.250,3101.50140137,N,12126.36641904,E,1,20,1.28,30.25,M,11.10,M,0.0,*7A
$GPFPD,1237,436768.250,00,00,00,3101.5014014,12126.3664190,41.346,0.001,-0.001,-0.039,00
$GPGGA,011911.250,3101.50142307,N,12126.36648309,E,1,20,1.12,30.07,M,11.10,M,0.0,*7F
$GPFPD,1237,436769.250,00,00,00,3101.5014231,12126.3664831,41.165,-0.009,0.001,-0.047,00
$GPGGA,011912.250,3101.50144759,N,12126.36653918,E,1,20,1.12,29.95,M,11.10,M,0.0,*76
$GPFPD,1237,436770.250,00,00,00,3101.5014476,12126.3665392,41.049,-0.005,-0.004,-0.045,00
$GPGGA,011913.250,3101.50144144,N,12126.36660353,E,1,20,1.12,29.90,M,11.10,M,0.0,*7D
$GPFPD,1237,436771.250,00,00,00,3101.5014414,12126.3666035,40.993,0.002,-0.005,-0.011,00
$GPGGA,011914.250,3101.50139985,N,12126.36665426,E,1,20,1.12,29.93,M,11.10,M,0.0,*76
$GPFPD,1237,436772.250,00,00,00,3101.5013998,12126.3666543,41.028,0.003,-0.005,-0.001,00
$GPGGA,011915.250,3101.50136474,N,12126.36669752,E,1,20,1.12,29.96,M,11.10,M,0.0,*72
$GPFPD,1237,436773.250,00,00,00,3101.5013647,12126.3666975,41.052,-0.008,-0.009,-0.016,00
$GPGGA,011916.250,3101.50134801,N,12126.36673900,E,1,20,1.12,29.98,M,11.10,M,0.0,*71
$GPFPD,1237,436774.250,00,00,00,3101.5013480,12126.3667390,41.077,-0.003,-0.008,0.004,00
$GPGGA,011917.250,3101.50136024,N,12126.36672251,E,1,20,1.12,29.96,M,11.10,M,0.0,*7D
$GPFPD,1237,436775.250,00,00,00,3101.5013602,12126.3667225,41.057,-0.003,-0.004,0.001,00
$GPGGA,011918.250,3101.50134357,N,12126.36674622,E,1,20,1.12,29.96,M,11.10,M,0.0,*71
$GPFPD,1237,436776.250,00,00,00,3101.5013436,12126.3667462,41.053,0.006,-0.010,-0.003,00
$GPGGA,011919.250,3101.50134416,N,12126.36673418,E,1,20,1.12,29.90,M,11.10,M,0.0,*78
$GPFPD,1237,436777.250,00,00,00,3101.5013442,12126.3667342,40.993,0.001,-0.009,-0.017,00
$GPGGA,011920.250,3101.50138560,N,12126.36670645,E,1,20,1.12,29.81,M,11.10,M,0.0,*77
$GPFPD,1237,436778.250,00,00,00,3101.5013856,12126.3667065,40.904,-0.001,-0.009,-0.004,00
$GPGGA,011921.250,3101.50141498,N,12126.36669112,E,1,20,1.12,29.77,M,11.10,M,0.0,*7A
$GPFPD,1237,436779.250,00,00,00,3101.5014150,12126.3666911,40.868,-0.004,-0.007,0.000,00
$GPGGA,011922.250,3101.50141802,N,12126.36669916,E,1,20,1.12,29.76,M,11.10,M,0.0,*7B
$GPFPD,1237,436780.250,00,00,00,3101.5014180,12126.3666992,40.851,0.016,-0.010,0.013,00
$GPGGA,011923.250,3101.50143697,N,12126.36671918,E,1,20,1.12,29.70,M,11.10,M,0.0,*7B
$GPFPD,1237,436781.250,00,00,00,3101.5014370,12126.3667192,40.796,0.003,-0.011,-0.002,00
$GPGGA,011924.250,3101.50143965,N,12126.36675129,E,1,20,1.12,29.71,M,11.10,M,0.0,*71
$GPFPD,1237,436782.250,00,00,00,3101.5014396,12126.3667513,40.801,-0.002,-0.012,-0.002,00
$GPGGA,011925.250,3101.50143652,N,12126.36674956,E,1,20,1.12,29.70,M,11.10,M,0.0,*7B
$GPFPD,1237,436783.250,00,00,00,3101.5014365,12126.3667496,40.799,-0.023,0.003,-0.007,00
$GPGGA,011926.250,3101.50142789,N,12126.36674881,E,1,20,1.12,29.72,M,11.10,M,0.0,*77
$GPFPD,1237,436784.250,00,00,00,3101.5014279,12126.3667488,40.819,-0.015,-0.004,-0.001,00
$GPGGA,011927.250,3101.50142370,N,12126.36677075,E,1,20,1.12,29.82,M,11.10,M,0.0,*7B
$GPFPD,1237,436785.250,00,00,00,3101.5014237,12126.3667707,40.911,-0.014,-0.005,-0.000,00
$GPGGA,011928.250,3101.50141677,N,12126.36681844,E,1,20,1.12,29.89,M,11.10,M,0.0,*7D
$GPFPD,1237,436786.250,00,00,00,3101.5014168,12126.3668184,40.982,0.019,-0.018,-0.006,00
$GPGGA,011929.250,3101.50138226,N,12126.36685562,E,1,20,1.12,29.95,M,11.10,M,0.0,*72
$GPFPD,1237,436787.250,00,00,00,3101.5013823,12126.3668556,41.049,0.011,-0.017,0.001,00
$GPGGA,011930.250,3101.50137399,N,12126.36686385,E,1,20,1.12,29.93,M,11.10,M,0.0,*7A
$GPFPD,1237,436788.250,00,00,00,3101.5013740,12126.3668639,41.027,0.004,-0.015,-0.013,00
$GPGGA,011931.250,3101.50137307,N,12126.36686024,E,1,20,1.12,29.94,M,11.10,M,0.0,*73
$GPFPD,1237,436789.250,00,00,00,3101.5013731,12126.3668602,41.032,0.001,-0.009,-0.012,00
$GPGGA,011932.250,3101.50135732,N,12126.36685674,E,1,20,1.12,29.93,M,11.10,M,0.0,*77
$GPFPD,1237,436790.250,00,00,00,3101.5013573,12126.3668567,41.025,-0.012,-0.014,-0.043,00
$GPGGA,011933.250,3101.50128780,N,12126.36683179,E,1,20,1.12,30.04,M,11.10,M,0.0,*79
$GPFPD,1237,436791.250,00,00,00,3101.5012878,12126.3668318,41.135,-0.006,-0.009,-0.019,00
$GPGGA,011934.250,3101.50127935,N,12126.36681363,E,1,20,1.12,30.05,M,11.10,M,0.0,*7B
$GPFPD,1237,436792.250,00,00,00,3101.5012794,12126.3668136,41.149,-0.007,-0.006,-0.013,00
$GPGGA,011935.250,3101.50122915,N,12126.36680645,E,1,20,1.16,30.06,M,11.10,M,0.0,*7A
$GPFPD,1237,436793.250,00,00,00,3101.5012291,12126.3668064,41.154,0.006,-0.007,-0.003,00
$GPGGA,011936.250,3101.50119947,N,12126.36683740,E,1,20,1.12,30.12,M,11.10,M,0.0,*70
$GPFPD,1237,436794.250,00,00,00,3101.5011995,12126.3668374,41.219,-0.002,-0.005,0.004,00
$GPGGA,011937.250,3101.50116096,N,12126.36684668,E,1,20,1.12,30.15,M,11.10,M,0.0,*70
$GPFPD,1237,436795.250,00,00,00,3101.5011610,12126.3668467,41.248,0.005,-0.005,-0.004,00
$GPGGA,011938.250,3101.50114394,N,12126.36685369,E,1,20,1.12,30.11,M,11.10,M,0.0,*7D
$GPFPD,1237,436796.250,00,00,00,3101.5011439,12126.3668537,41.201,0.003,-0.008,-0.002,00
$GPGGA,011939.250,3101.50112805,N,12126.36682886,E,1,20,1.12,30.09,M,11.10,M,0.0,*7D
$GPFPD,1237,436797.250,00,00,00,3101.5011281,12126.3668289,41.188,-0.003,-0.006,-0.018,00
$GPGGA,011940.250,3101.50112270,N,12126.36680570,E,1,20,1.12,30.08,M,11.10,M,0.0,*7C
$GPFPD,1237,436798.250,00,00,00,3101.5011227,12126.3668057,41.174,-0.013,-0.003,-0.014,00
$GPGGA,011941.250,3101.50110756,N,12126.36680071,E,1,20,1.12,30.12,M,11.10,M,0.0,*71
$GPFPD,1237,436799.250,00,00,00,3101.5011076,12126.3668007,41.212,-0.005,-0.008,0.001,00
$GPGGA,011942.250,3101.50109929,N,12126.36678855,E,1,20,1.12,30.16,M,11.10,M,0.0,*71
$GPFPD,1237,436800.250,00,00,00,3101.5010993,12126.3667886,41.256,-0.007,-0.009,0.010,00
$GPGGA,011943.250,3101.50109491,N,12126.36678120,E,1,20,1.12,30.14,M,11.10,M,0.0,*77
$GPFPD,1237,436801.250,00,00,00,3101.5010949,12126.3667812,41.235,-0.011,0.011,-0.043,00
$GPGGA,011944.250,3101.50109210,N,12126.36677080,E,1,20,1.12,30.15,M,11.10,M,0.0,*7A
$GPFPD,1237,436802.250,00,00,00,3101.5010921,12126.3667708,41.246,-0.014,0.002,-0.003,00
$GPGGA,011945.250,3101.50108114,N,12126.36677868,E,1,20,1.12,30.14,M,11.10,M,0.0,*72
$GPFPD,1237,436803.250,00,00,00,3101.5010811,12126.3667787,41.239,-0.011,-0.001,-0.010,00
$GPGGA,011946.250,3101.50108300,N,12126.36677921,E,1,20,1.12,30.13,M,11.10,M,0.0,*7D
$GPFPD,1237,436804.250,00,00,00,3101.5010830,12126.3667792,41.221,0.006,-0.016,-0.011,00
$GPGGA,011947.250,3101.50107554,N,12126.36677755,E,1,20,1.12,30.12,M,11.10,M,0.0,*78
$GPFPD,1237,436805.250,00,00,00,3101.5010755,12126.3667775,41.215,-0.013,-0.011,-0.010,00
$GPGGA,011948.250,3101.50106249,N,12126.36678391,E,1,20,1.12,30.12,M,11.10,M,0.0,*7E
$GPFPD,1237,436806.250,00,00,00,3101.5010625,12126.3667839,41.213,-0.001,-0.013,-0.008,00
$GPGGA,011949.250,3101.50105863,N,12126.36676127,E,1,20,1.12,30.06,M,11.10,M,0.0,*7A
$GPFPD,1237,436807.250,00,00,00,3101.5010586,12126.3667613,41.160,-0.000,-0.013,-0.015,00
$GPGGA,011950.250,3101.50104259,N,12126.36676184,E,1,20,1.12,30.07,M,11.10,M,0.0,*78
$GPFPD,1237,436808.250,00,00,00,3101.5010426,12126.3667618,41.162,0.001,-0.007,-0.019,00
$GPGGA,011951.250,3101.50103608,N,12126.36676957,E,1,20,1.12,30.10,M,11.10,M,0.0,*7E
$GPFPD,1237,436809.250,00,00,00,3101.5010361,12126.3667696,41.194,0.019,-0.010,0.026,00
$GPGGA,011952.250,3101.50104867,N,12126.36677192,E,1,20,1.12,30.21,M,11.10,M,0.0,*7F
$GPFPD,1237,436810.250,00,00,00,3101.5010487,12126.3667719,41.306,0.006,-0.011,-0.000,00
$GPGGA,011953.250,3101.50107754,N,12126.36674687,E,1,20,1.12,30.33,M,11.10,M,0.0,*71
$GPFPD,1237,436811.250,00,00,00,3101.5010775,12126.3667469,41.425,-0.002,-0.013,0.016,00
$GPGGA,011954.250,3101.50106998,N,12126.36670748,E,1,20,1.12,30.38,M,11.10,M,0.0,*74
$GPFPD,1237,436812.250,00,00,00,3101.5010700,12126.3667075,41.480,-0.006,-0.011,-0.001,00
$GPGGA,011955.250,3101.50106801,N,12126.36669595,E,1,20,1.12,30.41,M,11.10,M,0.0,*70
